[
    {
        "region": "Ashanti",
        "district": "Offinso North",
        "facilityname": "A.M.E Zion Clinic",
        "type": "Clinic",
        "town": "Afrancho",
        "ownership": "CHAG",
        "latitude": "7.40801",
        "longitude": "-1.96317"
    },
    {
        "region": "Ashanti",
        "district": "Bekwai Municipal",
        "facilityname": "Abenkyiman Clinic",
        "type": "Clinic",
        "town": "Anwiankwanta",
        "ownership": "Private",
        "latitude": "6.46312",
        "longitude": "-1.58592"
    },
    {
        "region": "Ashanti",
        "district": "Adansi North",
        "facilityname": "Aboabo Health Centre",
        "type": "Health Centre",
        "town": "Aboabo No 2",
        "ownership": "Government",
        "latitude": "6.22393",
        "longitude": "-1.34982"
    },
    {
        "region": "Ashanti",
        "district": "Afigya-Kwabre",
        "facilityname": "Aboabogya Health Centre",
        "type": "Health Centre",
        "town": "Aboabogya",
        "ownership": "Government",
        "latitude": "6.84177",
        "longitude": "-1.61098"
    },
    {
        "region": "Ashanti",
        "district": "Kwabre",
        "facilityname": "Aboaso Health Centre",
        "type": "Health Centre",
        "town": "Aboaso",
        "ownership": "Government",
        "latitude": "6.84177",
        "longitude": "-1.61098"
    },
    {
        "region": "Ashanti",
        "district": "Offinso North",
        "facilityname": "Aboffour Health Centre",
        "type": "Health Centre",
        "town": "Aboffour",
        "ownership": "Government",
        "latitude": "7.12986",
        "longitude": "-1.73294"
    },
    {
        "region": "Ashanti",
        "district": "Atwima-Nwabiagya",
        "facilityname": "Abuakwa Maternity Home",
        "type": "Maternity Home",
        "town": "Abuakwa",
        "ownership": "Private",
        "latitude": "7",
        "longitude": "-2"
    },
    {
        "region": "Ashanti",
        "district": "Atwima-Kwanwoma",
        "facilityname": "Aburaso Methodist clinic",
        "type": "Clinic",
        "town": "Aburaso",
        "ownership": "CHAG",
        "latitude": "6.66133",
        "longitude": "-1.67662"
    },
    {
        "region": "Ashanti",
        "district": "Ejisu-Juaben Municipal",
        "facilityname": "Achiase Health Centre",
        "type": "Health Centre",
        "town": "Achiase",
        "ownership": "Government",
        "latitude": "6.45543",
        "longitude": "-1.31004"
    },
    {
        "region": "Ashanti",
        "district": "Mampong Municipal",
        "facilityname": "Adidwan Health Centre",
        "type": "Health Centre",
        "town": "Adidwan",
        "ownership": "Government",
        "latitude": "7.25163",
        "longitude": "-1.40278"
    },
    {
        "region": "Ashanti",
        "district": "Amansie West",
        "facilityname": "Adimposo CHPS",
        "type": "CHPS",
        "town": "Adimposo",
        "ownership": "Government",
        "latitude": "6.33659",
        "longitude": "-1.92588"
    },
    {
        "region": "Ashanti",
        "district": "Asante-Akim North Municipal",
        "facilityname": "Adom Hospital",
        "type": "Hospital",
        "town": "Akratiebesa",
        "ownership": "Private",
        "latitude": "6.61879",
        "longitude": "-1.19202"
    },
    {
        "region": "Ashanti",
        "district": "Ahafo-Ano South",
        "facilityname": "Adom Maternity Home",
        "type": "Maternity Home",
        "town": "Adinyana",
        "ownership": "Private",
        "latitude": "6.88364",
        "longitude": "-1.87334"
    },
    {
        "region": "Ashanti",
        "district": "Afigya-Kwabre",
        "facilityname": "Adwumakase Kese Health Centre",
        "type": "Health Centre",
        "town": "Adwumakase Kese",
        "ownership": "Government",
        "latitude": "6.80813",
        "longitude": "-1.53933"
    },
    {
        "region": "Ashanti",
        "district": "Sekyere South",
        "facilityname": "Afamaso Maternity Home",
        "type": "Maternity Home",
        "town": "Afamaso",
        "ownership": "Private",
        "latitude": "6.94912",
        "longitude": "-1.50873"
    },
    {
        "region": "Ashanti",
        "district": "Sekyere Central",
        "facilityname": "Aframso Health Centre",
        "type": "Health Centre",
        "town": "Aframso No.3",
        "ownership": "Government",
        "latitude": "7.14472",
        "longitude": "-1.12162"
    },
    {
        "region": "Ashanti",
        "district": "Afigya-Kwabre",
        "facilityname": "Afrancho Health Centre",
        "type": "Health Centre",
        "town": "Afrancho",
        "ownership": "Government",
        "latitude": "6.81527",
        "longitude": "-1.59589"
    },
    {
        "region": "Ashanti",
        "district": "Asante-Akim North Municipal",
        "facilityname": "Agogo Presby Hospital",
        "type": "Hospital",
        "town": "Agogo",
        "ownership": "CHAG",
        "latitude": "6.79618",
        "longitude": "-1.08529"
    },
    {
        "region": "Ashanti",
        "district": "Sekyere South",
        "facilityname": "Agona Health Centre",
        "type": "Health Centre",
        "town": "Agona",
        "ownership": "Government",
        "latitude": "6.93605",
        "longitude": "-1.49759"
    },
    {
        "region": "Ashanti",
        "district": "Ejisu-Juaben Municipal",
        "facilityname": "Agyenkwa Clinic",
        "type": "Clinic",
        "town": "Hwireso",
        "ownership": "Private",
        "latitude": "6.67522",
        "longitude": "-1.38159"
    },
    {
        "region": "Ashanti",
        "district": "Obuasi Municipal",
        "facilityname": "Agyenkwa Clinic",
        "type": "Clinic",
        "town": "New  Estate-Obuasi",
        "ownership": "Private",
        "latitude": "6.20898",
        "longitude": "-1.67103"
    },
    {
        "region": "Ashanti",
        "district": "Atwima-Kwanwoma",
        "facilityname": "Ahenema kokoben Health Centre",
        "type": "Health Centre",
        "town": "Ahenema kokoben",
        "ownership": "Government",
        "latitude": "6.62597",
        "longitude": "-1.64978"
    },
    {
        "region": "Ashanti",
        "district": "Afigya-Kwabre",
        "facilityname": "Ahenkro Health Centre",
        "type": "Health Centre",
        "town": "Ahenkro",
        "ownership": "Government",
        "latitude": "6.87155",
        "longitude": "-1.64009"
    },
    {
        "region": "Ashanti",
        "district": "Sekyere East",
        "facilityname": "Ahmadiya Muslim Hospital",
        "type": "Hospital",
        "town": "Effiduase",
        "ownership": "Private",
        "latitude": "6.84534",
        "longitude": "-1.38366"
    },
    {
        "region": "Ashanti",
        "district": "Bekwai Municipal",
        "facilityname": "Ahmadiyaa Mission Hospital",
        "type": "Hospital",
        "town": "Kokofu",
        "ownership": "Private",
        "latitude": "6.50986",
        "longitude": "-1.53649"
    },
    {
        "region": "Ashanti",
        "district": "Bekwai Municipal",
        "facilityname": "Ahwene Memorial Hospital",
        "type": "Hospital",
        "town": "Bekwai",
        "ownership": "Private",
        "latitude": "6.45491",
        "longitude": "-1.57071"
    },
    {
        "region": "Ashanti",
        "district": "Adansi South",
        "facilityname": "Aim High Clinic",
        "type": "Clinic",
        "town": "Subin Camp",
        "ownership": "Private",
        "latitude": "5.96717",
        "longitude": "-1.44993"
    },
    {
        "region": "Ashanti",
        "district": "Sekyere East",
        "facilityname": "Akokuaso Health Centre",
        "type": "Health Centre",
        "town": "Akokuaso",
        "ownership": "Government",
        "latitude": "6.85355",
        "longitude": "-1.33583"
    },
    {
        "region": "Ashanti",
        "district": "Bekwai Municipal",
        "facilityname": "Akomaa Memorial Hospital",
        "type": "Hospital",
        "town": "Kortwia",
        "ownership": "CHAG",
        "latitude": "6.43966",
        "longitude": "-1.53837"
    },
    {
        "region": "Ashanti",
        "district": "Offinso North",
        "facilityname": "Akomadan Health Centre",
        "type": "Health Centre",
        "town": "Akomadan zongo",
        "ownership": "Government",
        "latitude": "7.40581",
        "longitude": "-1.96072"
    },
    {
        "region": "Ashanti",
        "district": "Adansi North",
        "facilityname": "Akrofrom Clinic",
        "type": "Clinic",
        "town": "New Akrofrom",
        "ownership": "Private",
        "latitude": "6.15348",
        "longitude": "-1.47621"
    },
    {
        "region": "Ashanti",
        "district": "Amansie Central",
        "facilityname": "Akrofrom Community Clinic",
        "type": "Clinic",
        "town": "Akrofrom",
        "ownership": "Government",
        "latitude": "6.39651",
        "longitude": "-1.60783"
    },
    {
        "region": "Ashanti",
        "district": "Adansi South",
        "facilityname": "Akrofrom Health Centre",
        "type": "Health Centre",
        "town": "Akrofrom",
        "ownership": "Government",
        "latitude": "6.12385",
        "longitude": "-1.65387"
    },
    {
        "region": "Ashanti",
        "district": "Adansi North",
        "facilityname": "Akrokerri Health Centre",
        "type": "Health Centre",
        "town": "Akrokerri",
        "ownership": "Government",
        "latitude": "6.29513",
        "longitude": "-1.63224"
    },
    {
        "region": "Ashanti",
        "district": "Atwima-Nwabiagya",
        "facilityname": "Akropong Health Centre",
        "type": "Health Centre",
        "town": "Akropong",
        "ownership": "Government",
        "latitude": "7",
        "longitude": "-2"
    },
    {
        "region": "Ashanti",
        "district": "Atwima-Nwabiagya",
        "facilityname": "Akropong Maternity Home",
        "type": "Maternity Home",
        "town": "Akropong",
        "ownership": "Private",
        "latitude": "7",
        "longitude": "-2"
    },
    {
        "region": "Ashanti",
        "district": "Adansi South",
        "facilityname": "Akutreso Health Centre",
        "type": "Health Centre",
        "town": "Akutreso",
        "ownership": "Government",
        "latitude": "6.09619",
        "longitude": "-1.29292"
    },
    {
        "region": "Ashanti",
        "district": "Ahafo-Ano North",
        "facilityname": "Akwasiase Dressing Station",
        "type": "Clinic",
        "town": "Akwasiase",
        "ownership": "Quasi-Government",
        "latitude": "6.99498",
        "longitude": "-2.19887"
    },
    {
        "region": "Ashanti",
        "district": "Ahafo-Ano North",
        "facilityname": "Alice Memorial Maternity Clinic",
        "type": "Maternity Home",
        "town": "Tepa",
        "ownership": "Private",
        "latitude": "6.99961",
        "longitude": "-2.17134"
    },
    {
        "region": "Ashanti",
        "district": "Obuasi Municipal",
        "facilityname": "All Souls Clinic",
        "type": "Clinic",
        "town": "Akaporiso",
        "ownership": "Private",
        "latitude": "6.19852",
        "longitude": "-1.62881"
    },
    {
        "region": "Ashanti",
        "district": "Adansi South",
        "facilityname": "Allen Health Clinic",
        "type": "Clinic",
        "town": "Wamasi",
        "ownership": "Government",
        "latitude": "6.08691",
        "longitude": "-1.69553"
    },
    {
        "region": "Ashanti",
        "district": "Obuasi Municipal",
        "facilityname": "Amansan Clinic",
        "type": "Clinic",
        "town": "Aboagye Krom",
        "ownership": "Private",
        "latitude": "6.19128",
        "longitude": "-1.65044"
    },
    {
        "region": "Ashanti",
        "district": "Asante-Akim North Municipal",
        "facilityname": "Amantenaman Health Centre",
        "type": "Health Centre",
        "town": "Nyinamponase",
        "ownership": "Government",
        "latitude": "6.77005",
        "longitude": "-1.16254"
    },
    {
        "region": "Ashanti",
        "district": "Ejisu-Juaben Municipal",
        "facilityname": "Amponsah Konadu Memorial Maternity Home",
        "type": "Maternity Home",
        "town": "Bonwire",
        "ownership": "Private",
        "latitude": "6.79262",
        "longitude": "-1.47187"
    },
    {
        "region": "Ashanti",
        "district": "Adansi South",
        "facilityname": "Ampunyasi Health Centre",
        "type": "Health Centre",
        "town": "Ampunyasi",
        "ownership": "Government",
        "latitude": "6.05519",
        "longitude": "-1.73677"
    },
    {
        "region": "Ashanti",
        "district": "Ahafo-Ano North",
        "facilityname": "Anane Aya Maternity Home",
        "type": "Maternity Home",
        "town": "Akwasiase",
        "ownership": "Private",
        "latitude": "6.99542",
        "longitude": "-2.19993"
    },
    {
        "region": "Ashanti",
        "district": "Asante-Akim North Municipal",
        "facilityname": "Ananekrom Health Centre",
        "type": "Health Centre",
        "town": "Ananekrom",
        "ownership": "Government",
        "latitude": "6.91527",
        "longitude": "-1.01533"
    },
    {
        "region": "Ashanti",
        "district": "Bosomtwe",
        "facilityname": "Anglican (Mobile) Eye Clinic",
        "type": "Clinic",
        "town": "Jachie",
        "ownership": "CHAG",
        "latitude": "6.56615",
        "longitude": "-1.52066"
    },
    {
        "region": "Ashanti",
        "district": "Bosomtwe",
        "facilityname": "Atonso\/Agogo Fejiase clinic",
        "type": "Clinic",
        "town": "Feyiase",
        "ownership": "Private",
        "latitude": "6.61268",
        "longitude": "-1.55999"
    },
    {
        "region": "Ashanti",
        "district": "Bosomtwe",
        "facilityname": "Brodekwanu Methodis Clinic",
        "type": "Clinic",
        "town": "Brodekwanu",
        "ownership": "CHAG",
        "latitude": "6.53546",
        "longitude": "-1.35365"
    },
    {
        "region": "Ashanti",
        "district": "Bosomtwe",
        "facilityname": "CAMFAP Maternity Clinic",
        "type": "Clinic",
        "town": "New Kokobiriko (Abijan-Nkwant",
        "ownership": "Private",
        "latitude": "6.57933",
        "longitude": "-1.54404"
    },
    {
        "region": "Ashanti",
        "district": "Bosomtwe",
        "facilityname": "Jachie Health Centre",
        "type": "Health Centre",
        "town": "Jachie",
        "ownership": "Government",
        "latitude": "6.56598",
        "longitude": "-1.52097"
    },
    {
        "region": "Ashanti",
        "district": "Bosomtwe",
        "facilityname": "Kuntenase Government Hospital",
        "type": "District Hospital",
        "town": "Kuntenase",
        "ownership": "Government",
        "latitude": "6.53752",
        "longitude": "-1.47454"
    },
    {
        "region": "Ashanti",
        "district": "Bosomtwe",
        "facilityname": "Lake Bosomtwi Methodist Clinic",
        "type": "Clinic",
        "town": "Amakom",
        "ownership": "CHAG",
        "latitude": "6.48398",
        "longitude": "-1.37362"
    },
    {
        "region": "Ashanti",
        "district": "Bosomtwe",
        "facilityname": "Nyameani Methodist Clinic",
        "type": "Clinic",
        "town": "Nyameani",
        "ownership": "CHAG",
        "latitude": "6.56458",
        "longitude": "-1.43022"
    },
    {
        "region": "Ashanti",
        "district": "Bosomtwe",
        "facilityname": "Piase CHPS",
        "type": "CHPS",
        "town": "Piase",
        "ownership": "Government",
        "latitude": "6.59099",
        "longitude": "-1.45151"
    },
    {
        "region": "Ashanti",
        "district": "Bosomtwe",
        "facilityname": "SDA Clinic Konkoma",
        "type": "Clinic",
        "town": "Konkoma",
        "ownership": "CHAG",
        "latitude": "6.51291",
        "longitude": "-1.34849"
    },
    {
        "region": "Ashanti",
        "district": "Bosomtwe",
        "facilityname": "Sophia Maternity Home",
        "type": "Maternity Home",
        "town": "Esereso",
        "ownership": "Private",
        "latitude": "6.63159",
        "longitude": "-1.56147"
    },
    {
        "region": "Ashanti",
        "district": "Bosomtwe",
        "facilityname": "St. Marys Anglican Clinic",
        "type": "Clinic",
        "town": "Apinkra",
        "ownership": "CHAG",
        "latitude": "6.54056",
        "longitude": "-1.54346"
    },
    {
        "region": "Ashanti",
        "district": "Bosomtwe",
        "facilityname": "St. Micheal Hospital",
        "type": "Hospital",
        "town": "Pramso",
        "ownership": "CHAG",
        "latitude": "6.55872",
        "longitude": "-1.51247"
    },
    {
        "region": "Ashanti",
        "district": "Bosomtwe",
        "facilityname": "Tetrefu Health Centre",
        "type": "Health Centre",
        "town": "Tetrefu",
        "ownership": "Government",
        "latitude": "6.62487",
        "longitude": "-1.53468"
    },
    {
        "region": "Ashanti",
        "district": "Bosomtwe",
        "facilityname": "God's Grace Maternity Home",
        "type": "Maternity Home",
        "town": "Aputuagya",
        "ownership": "Private",
        "latitude": "6.50168",
        "longitude": "-1.41448"
    },
    {
        "region": "Ashanti",
        "district": "Obuasi Municipal",
        "facilityname": "Anyinam Clinic",
        "type": "Clinic",
        "town": "Obuasi-Anyinam",
        "ownership": "Government",
        "latitude": "6.19897",
        "longitude": "-1.68205"
    },
    {
        "region": "Ashanti",
        "district": "Ahafo-Ano North",
        "facilityname": "Anyinasuso Health Centre",
        "type": "Health Centre",
        "town": "Anyinasuso",
        "ownership": "Government",
        "latitude": "6.95913",
        "longitude": "-2.10037"
    },
    {
        "region": "Ashanti",
        "district": "Ahafo-Ano North",
        "facilityname": "Anyinasuso Maternity Home",
        "type": "Maternity Home",
        "town": "Anyinasuso",
        "ownership": "Private",
        "latitude": "6.95871",
        "longitude": "-2.10015"
    },
    {
        "region": "Ashanti",
        "district": "Offinso North",
        "facilityname": "Anyinasusu SDA Centre",
        "type": "Clinic",
        "town": "Anyinasusu",
        "ownership": "CHAG",
        "latitude": "7.01484",
        "longitude": "-1.70874"
    },
    {
        "region": "Ashanti",
        "district": "Sekyere Afram Plains",
        "facilityname": "Anyinofi Health Centre",
        "type": "Health Centre",
        "town": "Anyinofi",
        "ownership": "Government",
        "latitude": "7.42528",
        "longitude": "-0.77045"
    },
    {
        "region": "Ashanti",
        "district": "Mampong Municipal",
        "facilityname": "Apaa Maternity Home",
        "type": "Maternity Home",
        "town": "Apaa",
        "ownership": "Private",
        "latitude": "6.95511",
        "longitude": "-1.43465"
    },
    {
        "region": "Ashanti",
        "district": "Ejisu-Juaben Municipal",
        "facilityname": "Apromase Health Centre",
        "type": "Health Centre",
        "town": "Apromase",
        "ownership": "Government",
        "latitude": "6.67085",
        "longitude": "-1.49543"
    },
    {
        "region": "Ashanti",
        "district": "Mampong Municipal",
        "facilityname": "Asaam Health Clinic",
        "type": "Health Centre",
        "town": "Asaam",
        "ownership": "Government",
        "latitude": "7.11732",
        "longitude": "-1.46598"
    },
    {
        "region": "Ashanti",
        "district": "Obuasi Municipal",
        "facilityname": "Asempa   Maternity and Clinic",
        "type": "Clinic",
        "town": "Gausu",
        "ownership": "Private",
        "latitude": "6.19924",
        "longitude": "-1.68233"
    },
    {
        "region": "Ashanti",
        "district": "Atwima-Kwanwoma",
        "facilityname": "Ahenema kokoben Health Centre",
        "type": "Health Centre",
        "town": "Ahenema kokoben",
        "ownership": "Government",
        "latitude": "6.62597",
        "longitude": "-1.64978"
    },
    {
        "region": "Ashanti",
        "district": "Atwima-Kwanwoma",
        "facilityname": "Bebu Methodist Clinic",
        "type": "Clinic",
        "town": "Bebu",
        "ownership": "CHAG",
        "latitude": "6.61154",
        "longitude": "-1.68505"
    },
    {
        "region": "Ashanti",
        "district": "Atwima-Kwanwoma",
        "facilityname": "Eye Adom Maternity Home",
        "type": "Maternity Home",
        "town": "Brofoyeduru",
        "ownership": "Private",
        "latitude": "6.61458",
        "longitude": "-1.65857"
    },
    {
        "region": "Ashanti",
        "district": "Atwima-Kwanwoma",
        "facilityname": "Foase Health Centre",
        "type": "Health Centre",
        "town": "Foase",
        "ownership": "Government",
        "latitude": "6.63751",
        "longitude": "-1.75124"
    },
    {
        "region": "Ashanti",
        "district": "Atwima-Kwanwoma",
        "facilityname": "Kwanwoma Health Centre",
        "type": "Health Centre",
        "town": "Kwanwoma",
        "ownership": "Government",
        "latitude": "6.62865",
        "longitude": "-1.63524"
    },
    {
        "region": "Ashanti",
        "district": "Atwima-Kwanwoma",
        "facilityname": "Trabuom Health Centre",
        "type": "Health Centre",
        "town": "Trabuom",
        "ownership": "Government",
        "latitude": "6.61142",
        "longitude": "-1.76252"
    },
    {
        "region": "Ashanti",
        "district": "Atwima-Kwanwoma",
        "facilityname": "Trede Health Centre",
        "type": "Health Centre",
        "town": "Trede",
        "ownership": "Government",
        "latitude": "6.57803",
        "longitude": "-1.66859"
    },
    {
        "region": "Ashanti",
        "district": "Atwima-Kwanwoma",
        "facilityname": "Nweneso III Health Centre",
        "type": "Health Centre",
        "town": "Nweneso III",
        "ownership": "Private",
        "latitude": "6.59721",
        "longitude": "-1.579"
    },
    {
        "region": "Ashanti",
        "district": "Bosome Freho",
        "facilityname": "Asiwa Health Centre",
        "type": "Health Centre",
        "town": "Asiwa",
        "ownership": "Government",
        "latitude": "6.42344",
        "longitude": "-1.33434"
    },
    {
        "region": "Ashanti",
        "district": "Adansi North",
        "facilityname": "Asokwa Health Centre",
        "type": "Health Centre",
        "town": "Asokwa",
        "ownership": "Government",
        "latitude": "6.28068",
        "longitude": "-1.50786"
    },
    {
        "region": "Ashanti",
        "district": "Amansie West",
        "facilityname": "Essuowin Health Centre",
        "type": "Health Centre",
        "town": "Assuowin",
        "ownership": "Government",
        "latitude": "6.53656",
        "longitude": "-1.86502"
    },
    {
        "region": "Ashanti",
        "district": "Sekyere Central",
        "facilityname": "Asubuasu Health Centre",
        "type": "Health Centre",
        "town": "Asubuasu",
        "ownership": "Government",
        "latitude": "7.31624",
        "longitude": "-1.23529"
    },
    {
        "region": "Ashanti",
        "district": "Atwima-Nwabiagya",
        "facilityname": "Asuofua Health Centre",
        "type": "Health Centre",
        "town": "Asuofia",
        "ownership": "Government",
        "latitude": "7",
        "longitude": "-2"
    },
    {
        "region": "Ashanti",
        "district": "Adansi South",
        "facilityname": "Ataasi Health Centre",
        "type": "Health Centre",
        "town": "Ataasi Nkwanta",
        "ownership": "Government",
        "latitude": "5.96664",
        "longitude": "-1.36454"
    },
    {
        "region": "Ashanti",
        "district": "Sekyere Central",
        "facilityname": "Atonsu Health Centre",
        "type": "Health Centre",
        "town": "Atonsu",
        "ownership": "Government",
        "latitude": "7.02372",
        "longitude": "-1.30912"
    },
    {
        "region": "Ashanti",
        "district": "Adansi South",
        "facilityname": "Atwereboana Clinic",
        "type": "Clinic",
        "town": "Atwereboana",
        "ownership": "Government",
        "latitude": "5.96235",
        "longitude": "-1.34213"
    },
    {
        "region": "Ashanti",
        "district": "Atwima-Nwabiagya",
        "facilityname": "Atwima Clinic",
        "type": "Clinic",
        "town": "Atwima",
        "ownership": "Government",
        "latitude": "7",
        "longitude": "-2"
    },
    {
        "region": "Ashanti",
        "district": "Obuasi Municipal",
        "facilityname": "Avril Clinic",
        "type": "Clinic",
        "town": "Akaporiso",
        "ownership": "Private",
        "latitude": "6.19802",
        "longitude": "-1.62953"
    },
    {
        "region": "Ashanti",
        "district": "Ejura Sekyeredumasi",
        "facilityname": "Babaso MCH",
        "type": "Clinic",
        "town": "Babaso",
        "ownership": "Government",
        "latitude": "7.34065",
        "longitude": "-1.32417"
    },
    {
        "region": "Ashanti",
        "district": "Asante-Akim South",
        "facilityname": "Banka Health Centre",
        "type": "Health Centre",
        "town": "Banka",
        "ownership": "Government",
        "latitude": "6.29824",
        "longitude": "-1.21615"
    },
    {
        "region": "Ashanti",
        "district": "Sekyere Afram Plains",
        "facilityname": "Banko Health Centre",
        "type": "Health Centre",
        "town": "Banko",
        "ownership": "Government",
        "latitude": "6.75822",
        "longitude": "-1.28473"
    },
    {
        "region": "Ashanti",
        "district": "Asante-Akim South",
        "facilityname": "Banso SDA Clinic",
        "type": "Clinic",
        "town": "Banso",
        "ownership": "Government",
        "latitude": "6.47584",
        "longitude": "-1.19674"
    },
    {
        "region": "Ashanti",
        "district": "Atwima-Nwabiagya",
        "facilityname": "Barekese Health Centre",
        "type": "Health Centre",
        "town": "Barekese",
        "ownership": "Government",
        "latitude": "7",
        "longitude": "-2"
    },
    {
        "region": "Ashanti",
        "district": "Atwima-Mponua",
        "facilityname": "Barniekrom maternity home",
        "type": "Maternity Home",
        "town": "Barniekrom",
        "ownership": "Government",
        "latitude": "6.54199",
        "longitude": "-2.17473"
    },
    {
        "region": "Ashanti",
        "district": "Asante-Akim North Municipal",
        "facilityname": "Bebome Health Centre",
        "type": "Health Centre",
        "town": "Bebome",
        "ownership": "Government",
        "latitude": "6.86725",
        "longitude": "-1.09566"
    },
    {
        "region": "Ashanti",
        "district": "Atwima-Kwanwoma",
        "facilityname": "Bebu Methodist Clinic",
        "type": "Clinic",
        "town": "Bebu",
        "ownership": "CHAG",
        "latitude": "6.61154",
        "longitude": "-1.68505"
    },
    {
        "region": "Ashanti",
        "district": "Bekwai Municipal",
        "facilityname": "Bekwai Government Hospital",
        "type": "District Hospital",
        "town": "Bekwai",
        "ownership": "Government",
        "latitude": "6.45605",
        "longitude": "-1.57857"
    },
    {
        "region": "Ashanti",
        "district": "Mampong Municipal",
        "facilityname": "Benim Health Centre",
        "type": "Health Centre",
        "town": "Benim",
        "ownership": "Government",
        "latitude": "7.09054",
        "longitude": "-1.46459"
    },
    {
        "region": "Ashanti",
        "district": "Sekyere Central",
        "facilityname": "Beposo Health Centre",
        "type": "Centre",
        "town": "Beposo",
        "ownership": "Government",
        "latitude": "6.98526",
        "longitude": "-1.35503"
    },
    {
        "region": "Ashanti",
        "district": "Atwima-Mponua",
        "facilityname": "Bethel Maternity Home",
        "type": "Maternity Home",
        "town": "Enyinamoso",
        "ownership": "Private",
        "latitude": "6.64692",
        "longitude": "-1.90327"
    },
    {
        "region": "Ashanti",
        "district": "Ahafo-Ano North",
        "facilityname": "Betiako Health Centre",
        "type": "Health Centre",
        "town": "Betiako",
        "ownership": "Government",
        "latitude": "6.86638",
        "longitude": "-2.20685"
    },
    {
        "region": "Ashanti",
        "district": "Atwima-Mponua",
        "facilityname": "Beyerebon No.5 Health Centre",
        "type": "Health Centre",
        "town": "Bayerebon",
        "ownership": "Government",
        "latitude": "6.39211",
        "longitude": "-2.18134"
    },
    {
        "region": "Ashanti",
        "district": "Mampong Municipal",
        "facilityname": "Birem Health Centre",
        "type": "Health Centre",
        "town": "Birem",
        "ownership": "Government",
        "latitude": "7.22732",
        "longitude": "-0.99197"
    },
    {
        "region": "Ashanti",
        "district": "Afigya-Kwabre",
        "facilityname": "Boamang Health Centre",
        "type": "Health Centre",
        "town": "Boamang",
        "ownership": "Government",
        "latitude": "6.94073",
        "longitude": "-1.61705"
    },
    {
        "region": "Ashanti",
        "district": "Sekyere South",
        "facilityname": "Boanim Health Centre",
        "type": "Health Centre",
        "town": "Boanim",
        "ownership": "Government",
        "latitude": "7.03482",
        "longitude": "-1.48741"
    },
    {
        "region": "Ashanti",
        "district": "Adansi North",
        "facilityname": "Bodwesango St Louis Health Centre",
        "type": "Health Centre",
        "town": "Bodwesango",
        "ownership": "CHAG",
        "latitude": "6.22249",
        "longitude": "-1.31031"
    },
    {
        "region": "Ashanti",
        "district": "Ejisu-Juaben Municipal",
        "facilityname": "Bomfa Health Centre",
        "type": "Health Centre",
        "town": "Bomfa",
        "ownership": "Government",
        "latitude": "6.59635",
        "longitude": "-1.29933"
    },
    {
        "region": "Ashanti",
        "district": "Asante-Akim South",
        "facilityname": "Bompata Health Centre",
        "type": "Health Centre",
        "town": "Bompata",
        "ownership": "Government",
        "latitude": "6.66727",
        "longitude": "-1.08393"
    },
    {
        "region": "Ashanti",
        "district": "Offinso Municipal",
        "facilityname": "Bonsua Health Centre",
        "type": "Health Centre",
        "town": "Bonsua",
        "ownership": "Government",
        "latitude": "6.93485",
        "longitude": "-1.67615"
    },
    {
        "region": "Ashanti",
        "district": "Ejisu-Juaben Municipal",
        "facilityname": "Bonwire Clinic",
        "type": "Clinic",
        "town": "Bonwire",
        "ownership": "Private",
        "latitude": "6.4716",
        "longitude": "-1.2846"
    },
    {
        "region": "Ashanti",
        "district": "Obuasi Municipal",
        "facilityname": "Brahabebome Clinic",
        "type": "Clinic",
        "town": "Brahabebome New Site",
        "ownership": "Private",
        "latitude": "6.19444",
        "longitude": "-1.63014"
    },
    {
        "region": "Ashanti",
        "district": "Obuasi Municipal",
        "facilityname": "Bryant  Mission Hospital",
        "type": "Hospital",
        "town": "Boete",
        "ownership": "Private",
        "latitude": "6.1131",
        "longitude": "-1.3844"
    },
    {
        "region": "Ashanti",
        "district": "Obuasi Municipal",
        "facilityname": "Cecilia Maternity  Home",
        "type": "Maternity Home",
        "town": "Kwabrafoso",
        "ownership": "Private",
        "latitude": "6.19886",
        "longitude": "-1.65574"
    },
    {
        "region": "Ashanti",
        "district": "Obuasi Municipal",
        "facilityname": "Central Market Clinic",
        "type": "Clinic",
        "town": "Estate Extension",
        "ownership": "Private",
        "latitude": "6.20591",
        "longitude": "-1.67031"
    },
    {
        "region": "Ashanti",
        "district": "Kwabre",
        "facilityname": "Christ Our Hope Maternity Home",
        "type": "Maternity Home",
        "town": "Ntonso",
        "ownership": "Private",
        "latitude": "6.75486",
        "longitude": "-1.52744"
    },
    {
        "region": "Ashanti",
        "district": "Amansie West",
        "facilityname": "Christ Our Saviour Clinic",
        "type": "Clinic",
        "town": "Manso Moseaso",
        "ownership": "CHAG",
        "latitude": "6.51142",
        "longitude": "-1.85217"
    },
    {
        "region": "Ashanti",
        "district": "Ejisu-Juaben Municipal",
        "facilityname": "Church of Christ Mission Clinic",
        "type": "Clinic",
        "town": "Adadientam",
        "ownership": "CHAG",
        "latitude": "6.71394",
        "longitude": "-1.42827"
    },
    {
        "region": "Ashanti",
        "district": "Ejisu-Juaben Municipal",
        "facilityname": "Church of God Clinic",
        "type": "Clinic",
        "town": "Essienimpong",
        "ownership": "CHAG",
        "latitude": "6.66053",
        "longitude": "-1.44979"
    },
    {
        "region": "Ashanti",
        "district": "Atwima-Mponua",
        "facilityname": "Community Health Centre",
        "type": "Clinic",
        "town": "Mpasatia",
        "ownership": "CHAG",
        "latitude": "6.66848",
        "longitude": "-1.84016"
    },
    {
        "region": "Ashanti",
        "district": "Sekyere Central",
        "facilityname": "Cross Medical Centre",
        "type": "Clinic",
        "town": "Nsuta",
        "ownership": "Private",
        "latitude": "7.00829",
        "longitude": "-1.37595"
    },
    {
        "region": "Ashanti",
        "district": "Asante-Akim North Municipal",
        "facilityname": "Daasebre Maternity Home",
        "type": "Maternity Home",
        "town": "Ahenebronuum",
        "ownership": "Private",
        "latitude": "6.62776",
        "longitude": "-1.21314"
    },
    {
        "region": "Ashanti",
        "district": "Sekyere Afram Plains",
        "facilityname": "Dadiase Health Centre",
        "type": "Health Centre",
        "town": "Dadiase",
        "ownership": "Government",
        "latitude": "6.88078",
        "longitude": "-1.36776"
    },
    {
        "region": "Ashanti",
        "district": "Ejisu-Juaben Municipal",
        "facilityname": "Dakopon Hospital",
        "type": "Hospital",
        "town": "Kwamo",
        "ownership": "Private",
        "latitude": "6.72086",
        "longitude": "-1.49322"
    },
    {
        "region": "Ashanti",
        "district": "Amansie West",
        "facilityname": "Datano Health Post",
        "type": "Clinic",
        "town": "Datano",
        "ownership": "CHAG",
        "latitude": "6.29398",
        "longitude": "-1.97098"
    },
    {
        "region": "Ashanti",
        "district": "Bosome Freho",
        "facilityname": "Detieso Community Clinic",
        "type": "Clinic",
        "town": "Detieso",
        "ownership": "Government",
        "latitude": "6.47674",
        "longitude": "-1.44168"
    },
    {
        "region": "Ashanti",
        "district": "Sekyere South",
        "facilityname": "Domeabra Health Centre",
        "type": "Health Centre",
        "town": "Domeabra",
        "ownership": "Government",
        "latitude": "6.93864",
        "longitude": "-1.55757"
    },
    {
        "region": "Ashanti",
        "district": "Adansi North",
        "facilityname": "Dompoase Benito Menni Health Centre",
        "type": "Health Centre",
        "town": "Dompoase",
        "ownership": "CHAG",
        "latitude": "6.32282",
        "longitude": "-1.54468"
    },
    {
        "region": "Ashanti",
        "district": "Amansie West",
        "facilityname": "Dora Maternity Clinic",
        "type": "Maternity Home",
        "town": "Pakyi  No 2",
        "ownership": "Private",
        "latitude": "6.4804",
        "longitude": "-1.4951"
    },
    {
        "region": "Ashanti",
        "district": "Offinso North",
        "facilityname": "Dorcas Memorial Clinic",
        "type": "Clinic",
        "town": "Akomadan",
        "ownership": "CHAG",
        "latitude": "7.39694",
        "longitude": "-1.95297"
    },
    {
        "region": "Ashanti",
        "district": "Bosome Freho",
        "facilityname": "Duasi Community Clinic",
        "type": "Clinic",
        "town": "Duasi",
        "ownership": "Government",
        "latitude": "6.46863",
        "longitude": "-1.39522"
    },
    {
        "region": "Ashanti",
        "district": "Asante-Akim North Municipal",
        "facilityname": "Dwease Health Centre",
        "type": "Health Centre",
        "town": "Dwease",
        "ownership": "Government",
        "latitude": "6.53747",
        "longitude": "-1.24407"
    },
    {
        "region": "Ashanti",
        "district": "Asante-Akim South",
        "facilityname": "Dwendwenase Health Centre",
        "type": "Health Centre",
        "town": "Dwendwenase",
        "ownership": "Government",
        "latitude": "6.41223",
        "longitude": "-1.19934"
    },
    {
        "region": "Ashanti",
        "district": "Atwima-Mponua",
        "facilityname": "Ebenezer Methodist Clinic",
        "type": "Clinic",
        "town": "Mpasatia",
        "ownership": "CHAG",
        "latitude": "6.65865",
        "longitude": "-1.84306"
    },
    {
        "region": "Ashanti",
        "district": "Adansi South",
        "facilityname": "Edwafo Health Centre",
        "type": "Health Centre",
        "town": "Edwafo",
        "ownership": "Government",
        "latitude": "6.19675",
        "longitude": "-1.57367"
    },
    {
        "region": "Ashanti",
        "district": "Sekyere East",
        "facilityname": "Effiduase District Hospital",
        "type": "District Hospital",
        "town": "Effiduase",
        "ownership": "Government",
        "latitude": "6.84739",
        "longitude": "-1.39373"
    },
    {
        "region": "Ashanti",
        "district": "Sekyere East",
        "facilityname": "Effiduase Trust Maternity Home",
        "type": "Maternity Home",
        "town": "Effiduase",
        "ownership": "Private",
        "latitude": "6.84821",
        "longitude": "-1.39412"
    },
    {
        "region": "Ashanti",
        "district": "Ejisu-Juaben Municipal",
        "facilityname": "Ejisu Health Centre",
        "type": "Health Centre",
        "town": "Ejisu",
        "ownership": "Government",
        "latitude": "6.72103",
        "longitude": "-1.47028"
    },
    {
        "region": "Ashanti",
        "district": "Ejura Sekyeredumasi",
        "facilityname": "Ejura District Hospital",
        "type": "District Hospital",
        "town": "Ejura",
        "ownership": "Government",
        "latitude": "7.38906",
        "longitude": "-1.35197"
    },
    {
        "region": "Ashanti",
        "district": "Ejura Sekyeredumasi",
        "facilityname": "Ejura MCH",
        "type": "Clinic",
        "town": "Ejura",
        "ownership": "Government",
        "latitude": "7.36556",
        "longitude": "-1.34358"
    },
    {
        "region": "Ashanti",
        "district": "Afigya-Kwabre",
        "facilityname": "Ejuratia Health Centre",
        "type": "Health Centre",
        "town": "Ejuratia",
        "ownership": "Government",
        "latitude": "6.82287",
        "longitude": "-1.52227"
    },
    {
        "region": "Ashanti",
        "district": "Obuasi Municipal",
        "facilityname": "Emmanuel  Maternity  Home",
        "type": "Maternity Home",
        "town": "Boete",
        "ownership": "Private",
        "latitude": "6.19235",
        "longitude": "-1.64475"
    },
    {
        "region": "Ashanti",
        "district": "Ejura Sekyeredumasi",
        "facilityname": "Enso Nyameye Maternity Home",
        "type": "Maternity Home",
        "town": "Kontokori Line",
        "ownership": "Private",
        "latitude": "7.37894",
        "longitude": "-1.35796"
    },
    {
        "region": "Ashanti",
        "district": "Ahafo-Ano South",
        "facilityname": "Essienkyem Health Centre",
        "type": "Health Centre",
        "town": "Essienkyem",
        "ownership": "Government",
        "latitude": "6.97584",
        "longitude": "-1.84784"
    },
    {
        "region": "Ashanti",
        "district": "Atwima-Nwabiagya",
        "facilityname": "Everest Hospital",
        "type": "Hospital",
        "town": "Achiase",
        "ownership": "Private",
        "latitude": "7",
        "longitude": "-2"
    },
    {
        "region": "Ashanti",
        "district": "Atwima-Kwanwoma",
        "facilityname": "Eye Adom Maternity Home",
        "type": "Maternity Home",
        "town": "Brofoyeduru",
        "ownership": "Private",
        "latitude": "6.61458",
        "longitude": "-1.65857"
    },
    {
        "region": "Ashanti",
        "district": "Afigya-Kwabre",
        "facilityname": "Family Care Hospital",
        "type": "Hospital",
        "town": "Mowre",
        "ownership": "Private",
        "latitude": "6.81614",
        "longitude": "-1.47675"
    },
    {
        "region": "Ashanti",
        "district": "Kwabre",
        "facilityname": "Fawade Nkanta Clinic",
        "type": "Clinic",
        "town": "Fawade",
        "ownership": "Private",
        "latitude": "6.81047",
        "longitude": "-1.63866"
    },
    {
        "region": "Ashanti",
        "district": "Atwima-Kwanwoma",
        "facilityname": "Foase Health Centre",
        "type": "Health Centre",
        "town": "Foase",
        "ownership": "Government",
        "latitude": "6.63751",
        "longitude": "-1.75124"
    },
    {
        "region": "Ashanti",
        "district": "Adansi North",
        "facilityname": "Fomena Health Centre",
        "type": "Health Centre",
        "town": "Fomena",
        "ownership": "Government",
        "latitude": "6.28022",
        "longitude": "-1.51002"
    },
    {
        "region": "Ashanti",
        "district": "Adansi North",
        "facilityname": "Fumso Health Centre",
        "type": "Health Centre",
        "town": "Fumso",
        "ownership": "Government",
        "latitude": "6.11048",
        "longitude": "-1.44854"
    },
    {
        "region": "Ashanti",
        "district": "Adansi North",
        "facilityname": "Fumso-Ketewa Health Centre",
        "type": "Health Centre",
        "town": "Fumso Ketewa",
        "ownership": "Government",
        "latitude": "6.29675",
        "longitude": "-1.63103"
    },
    {
        "region": "Ashanti",
        "district": "Afigya-Kwabre",
        "facilityname": "Gladys Maternity Home",
        "type": "Maternity Home",
        "town": "Kodie",
        "ownership": "Private",
        "latitude": "6.78875",
        "longitude": "-1.56109"
    },
    {
        "region": "Ashanti",
        "district": "Ejisu-Juaben Municipal",
        "facilityname": "Global Evangelical Mission Hospital",
        "type": "Hospital",
        "town": "Apromase",
        "ownership": "CHAG",
        "latitude": "6.66903",
        "longitude": "-1.49298"
    },
    {
        "region": "Ashanti",
        "district": "Atwima-Nwabiagya",
        "facilityname": "God is Able Maternity Home",
        "type": "Maternity Home",
        "town": "Sepase",
        "ownership": "Private",
        "latitude": "7",
        "longitude": "-2"
    },
    {
        "region": "Ashanti",
        "district": "Ejisu-Juaben Municipal",
        "facilityname": "Grace Maternity Home and Clinic",
        "type": "Maternity Home",
        "town": "Akyawkrom",
        "ownership": "Private",
        "latitude": "6.73257",
        "longitude": "-1.46146"
    },
    {
        "region": "Ashanti",
        "district": "Bosome Freho",
        "facilityname": "Gyasikrom Health Centre",
        "type": "Clinic",
        "town": "Gyasikrom",
        "ownership": "Government",
        "latitude": "6.40145",
        "longitude": "-1.47313"
    },
    {
        "region": "Ashanti",
        "district": "Atwima-Mponua",
        "facilityname": "Gyreso RCH",
        "type": "RCH",
        "town": "Gyeresu",
        "ownership": "Government",
        "latitude": "6.47006",
        "longitude": "-2.41673"
    },
    {
        "region": "Ashanti",
        "district": "Ejura Sekyeredumasi",
        "facilityname": "Homako Community Clinic",
        "type": "Clinic",
        "town": "Homako",
        "ownership": "Government",
        "latitude": "7.42915",
        "longitude": "-1.45106"
    },
    {
        "region": "Ashanti",
        "district": "Ejisu-Juaben Municipal",
        "facilityname": "Humble Maternity Home",
        "type": "Maternity Home",
        "town": "Kokobra",
        "ownership": "Private",
        "latitude": "6.71479",
        "longitude": "-1.52225"
    },
    {
        "region": "Ashanti",
        "district": "Ejisu-Juaben Municipal",
        "facilityname": "Huttel Health Centre",
        "type": "Health Centre",
        "town": "Boamadumase",
        "ownership": "Private",
        "latitude": "6.61582",
        "longitude": "-1.34007"
    },
    {
        "region": "Ashanti",
        "district": "Adansi South",
        "facilityname": "Hwidiem Community Clinic",
        "type": "Clinic",
        "town": "Hwidiem",
        "ownership": "Government",
        "latitude": "5.89432",
        "longitude": "-1.46766"
    },
    {
        "region": "Ashanti",
        "district": "Obuasi Municipal",
        "facilityname": "Ideal Homoepatic Clinic",
        "type": "Clinic",
        "town": "Obuasi - Stadium",
        "ownership": "Private",
        "latitude": "6.20564",
        "longitude": "-1.68425"
    },
    {
        "region": "Ashanti",
        "district": "Sekyere Central",
        "facilityname": "Isaaka Akura Health Centre",
        "type": "Health Centre",
        "town": "Isaaka Akura-Afram  Plains",
        "ownership": "Private",
        "latitude": "7.41542",
        "longitude": "-1.13783"
    },
    {
        "region": "Ashanti",
        "district": "Afigya-Kwabre",
        "facilityname": "Jalua  Maternity Home",
        "type": "Maternity Home",
        "town": "Nkukua Buoho",
        "ownership": "Private",
        "latitude": "6.81462",
        "longitude": "-1.64877"
    },
    {
        "region": "Ashanti",
        "district": "Sekyere South",
        "facilityname": "Jamasi Health Centre",
        "type": "Health Centre",
        "town": "Jamasi",
        "ownership": "Government",
        "latitude": "6.97753",
        "longitude": "-1.47255"
    },
    {
        "region": "Ashanti",
        "district": "Sekyere Central",
        "facilityname": "Jeduako Clinic",
        "type": "Clinic",
        "town": "Jeduako",
        "ownership": "Government",
        "latitude": "7.09501",
        "longitude": "-1.20917"
    },
    {
        "region": "Ashanti",
        "district": "Obuasi Municipal",
        "facilityname": "Jemina Maternity Home",
        "type": "Maternity Home",
        "town": "Obuasi Central",
        "ownership": "Private",
        "latitude": "6.20313",
        "longitude": "-1.66816"
    },
    {
        "region": "Ashanti",
        "district": "Ejisu-Juaben Municipal",
        "facilityname": "Jesus Is Lord Maternity Home",
        "type": "Maternity Home",
        "town": "Tikrom",
        "ownership": "Private",
        "latitude": "6.73865",
        "longitude": "-1.51092"
    },
    {
        "region": "Ashanti",
        "district": "Kwabre",
        "facilityname": "Joy Maternity Home",
        "type": "Maternity Home",
        "town": "Mamponteng",
        "ownership": "Private",
        "latitude": "6.79962",
        "longitude": "-1.64543"
    },
    {
        "region": "Ashanti",
        "district": "Ejisu-Juaben Municipal",
        "facilityname": "Juaben Government Hospital",
        "type": "District Hospital",
        "town": "Juaben",
        "ownership": "Government",
        "latitude": "6.81602",
        "longitude": "-1.41392"
    },
    {
        "region": "Ashanti",
        "district": "Asante-Akim North Municipal",
        "facilityname": "Juansa Health Centre",
        "type": "Health Centre",
        "town": "Juansa",
        "ownership": "Government",
        "latitude": "6.72336",
        "longitude": "-1.12734"
    },
    {
        "region": "Ashanti",
        "district": "Asante-Akim South",
        "facilityname": "Juaso District Hospital",
        "type": "District Hospital",
        "town": "Juaso",
        "ownership": "Government",
        "latitude": "6.59223",
        "longitude": "-1.12113"
    },
    {
        "region": "Ashanti",
        "district": "Amansie West",
        "facilityname": "Keniago CHPS",
        "type": "CHPS",
        "town": "Keniago",
        "ownership": "Government",
        "latitude": "6.37344",
        "longitude": "-2.01764"
    },
    {
        "region": "Ashanti",
        "district": "Kwabre",
        "facilityname": "Kenyasi Health Centre",
        "type": "Health Centre",
        "town": "Kenyasi",
        "ownership": "Government",
        "latitude": "6.78507",
        "longitude": "-1.56655"
    },
    {
        "region": "Ashanti",
        "district": "Obuasi Municipal",
        "facilityname": "KofiKrom Clinic",
        "type": "Clinic",
        "town": "Kofi Krom",
        "ownership": "Private",
        "latitude": "6.19624",
        "longitude": "-1.68043"
    },
    {
        "region": "Ashanti",
        "district": "Mampong Municipal",
        "facilityname": "Kofiase Health Centre",
        "type": "Health Centre",
        "town": "Kofiase",
        "ownership": "Government",
        "latitude": "7.14113",
        "longitude": "-1.48363"
    },
    {
        "region": "Ashanti",
        "district": "Bekwai Municipal",
        "facilityname": "Kokofu General Hospital",
        "type": "Hospital",
        "town": "Kokofu",
        "ownership": "Government",
        "latitude": "6.49903",
        "longitude": "-1.52254"
    },
    {
        "region": "Ashanti",
        "district": "Sekyere South",
        "facilityname": "Kona Health Centre",
        "type": "Health Centre",
        "town": "Kona",
        "ownership": "Government",
        "latitude": "6.86776",
        "longitude": "-1.51231"
    },
    {
        "region": "Ashanti",
        "district": "Asante-Akim North Municipal",
        "facilityname": "Konongo-Odumasi Government Hospital",
        "type": "District Hospital",
        "town": "Konongo",
        "ownership": "Government",
        "latitude": "6.62436",
        "longitude": "-1.21792"
    },
    {
        "region": "Ashanti",
        "district": "Mampong Municipal",
        "facilityname": "Krobo Health Centre",
        "type": "Health Centre",
        "town": "Krobo",
        "ownership": "Government",
        "latitude": "7.07457",
        "longitude": "-1.42352"
    },
    {
        "region": "Ashanti",
        "district": "Sekyere Afram Plains",
        "facilityname": "Kumawu Health Centre",
        "type": "Health Centre",
        "town": "Kumawu",
        "ownership": "Government",
        "latitude": "6.90708",
        "longitude": "-1.26803"
    },
    {
        "region": "Ashanti",
        "district": "Asante-Akim South",
        "facilityname": "Komeso Health Centre",
        "type": "Health Centre",
        "town": "Kumeso",
        "ownership": "Government",
        "latitude": "6.46154",
        "longitude": "-1.06901"
    },
    {
        "region": "Ashanti",
        "district": "Afigya-Kwabre",
        "facilityname": "Kwamang Health Centre",
        "type": "Health Centre",
        "town": "Kwamang",
        "ownership": "Government",
        "latitude": "6.89664",
        "longitude": "-1.62457"
    },
    {
        "region": "Ashanti",
        "district": "Sekyere Central",
        "facilityname": "Kwamang Health Centre",
        "type": "Health Centre",
        "town": "Kwamang",
        "ownership": "Government",
        "latitude": "6.98188",
        "longitude": "-1.26961"
    },
    {
        "region": "Ashanti",
        "district": "Atwima-Kwanwoma",
        "facilityname": "Kwanwoma Health Centre",
        "type": "Health Centre",
        "town": "Kwanwoma",
        "ownership": "Government",
        "latitude": "6.62865",
        "longitude": "-1.63524"
    },
    {
        "region": "Ashanti",
        "district": "Ejisu-Juaben Municipal",
        "facilityname": "Kwaso Health Centre",
        "type": "Health Centre",
        "town": "Kwaso",
        "ownership": "Government",
        "latitude": "6.62771",
        "longitude": "-1.44722"
    },
    {
        "region": "Ashanti",
        "district": "Afigya-Kwabre",
        "facilityname": "Kyekyewere Health Centre",
        "type": "Health Centre",
        "town": "Kyekyewere",
        "ownership": "Government",
        "latitude": "7.14538",
        "longitude": "-1.63944"
    },
    {
        "region": "Ashanti",
        "district": "Asante-Akim North Municipal",
        "facilityname": "Life Land Clinic",
        "type": "Clinic",
        "town": "Abosomtweagya",
        "ownership": "Private",
        "latitude": "6.62067",
        "longitude": "-1.20373"
    },
    {
        "region": "Ashanti",
        "district": "Atwima-Nwabiagya",
        "facilityname": "Maakro Clinic",
        "type": "Clinic",
        "town": "Maakro",
        "ownership": "Private",
        "latitude": "7",
        "longitude": "-2"
    },
    {
        "region": "Ashanti",
        "district": "Ahafo-Ano North",
        "facilityname": "Matang Clinic",
        "type": "Clinic",
        "town": "Matang",
        "ownership": "Private",
        "latitude": "6.99615",
        "longitude": "-2.21651"
    },
    {
        "region": "Ashanti",
        "district": "Ejisu-Juaben Municipal",
        "facilityname": "Madoma Maternity Clinic",
        "type": "Clinic",
        "town": "Besease",
        "ownership": "CHAG",
        "latitude": "6.72093",
        "longitude": "-1.45015"
    },
    {
        "region": "Ashanti",
        "district": "Ejisu-Juaben Municipal",
        "facilityname": "Mama Tina Maternity Home",
        "type": "Maternity Home",
        "town": "Kwamo",
        "ownership": "Private",
        "latitude": "6.71524",
        "longitude": "-1.50509"
    },
    {
        "region": "Ashanti",
        "district": "Mampong Municipal",
        "facilityname": "Mampong District Hospital",
        "type": "District Hospital",
        "town": "Mampong",
        "ownership": "Government",
        "latitude": "7.04563",
        "longitude": "-1.40219"
    },
    {
        "region": "Ashanti",
        "district": "Mampong Municipal",
        "facilityname": "Mampong Quality Hospital",
        "type": "Hospital",
        "town": "Mampong",
        "ownership": "Private",
        "latitude": "7.04621",
        "longitude": "-1.40195"
    },
    {
        "region": "Ashanti",
        "district": "Kwabre",
        "facilityname": "Mamponteng Health Centre",
        "type": "Health Centre",
        "town": "Mamponteng",
        "ownership": "Government",
        "latitude": "6.83295",
        "longitude": "-1.47695"
    },
    {
        "region": "Ashanti",
        "district": "Ahafo-Ano North",
        "facilityname": "Manfo Health Centre",
        "type": "Health Centre",
        "town": "Manfo",
        "ownership": "Government",
        "latitude": "6.94531",
        "longitude": "-2.23044"
    },
    {
        "region": "Ashanti",
        "district": "Ahafo-Ano South",
        "facilityname": "Mankranso Hospital",
        "type": "Hospital",
        "town": "Mankranso",
        "ownership": "Government",
        "latitude": "6.82076",
        "longitude": "-1.86278"
    },
    {
        "region": "Ashanti",
        "district": "Amansie West",
        "facilityname": "Manso Abore Health Centre",
        "type": "Health Centre",
        "town": "Manso Abore",
        "ownership": "Government",
        "latitude": "6.44627",
        "longitude": "-1.97764"
    },
    {
        "region": "Ashanti",
        "district": "Amansie West",
        "facilityname": "Manso Edubia Health Centre",
        "type": "Health Centre",
        "town": "Manso-Adubia",
        "ownership": "Government",
        "latitude": "6.40256",
        "longitude": "-1.92957"
    },
    {
        "region": "Ashanti",
        "district": "Amansie West",
        "facilityname": "Manso Nkwanta Maternity Home",
        "type": "Maternity Home",
        "town": "Manso Nkwanta",
        "ownership": "Private",
        "latitude": "6.47682",
        "longitude": "-1.87916"
    },
    {
        "region": "Ashanti",
        "district": "Amansie West",
        "facilityname": "Manso Tontokrom Health Centre",
        "type": "Health Centre",
        "town": "Tontokrom",
        "ownership": "Government",
        "latitude": "6.24929",
        "longitude": "-1.99483"
    },
    {
        "region": "Ashanti",
        "district": "Adansi South",
        "facilityname": "Mansonso Health Centre",
        "type": "Health Centre",
        "town": "Mansonso",
        "ownership": "Government",
        "latitude": "6.04547",
        "longitude": "-1.58955"
    },
    {
        "region": "Ashanti",
        "district": "Amansie Central",
        "facilityname": "Marben Maternity",
        "type": "Maternity Home",
        "town": "Jacobu",
        "ownership": "Private",
        "latitude": "6.35241",
        "longitude": "-1.67799"
    },
    {
        "region": "Ashanti",
        "district": "Kwabre",
        "facilityname": "Meduma Clinic",
        "type": "Clinic",
        "town": "Medoma",
        "ownership": "Private",
        "latitude": "6.79089",
        "longitude": "-1.56091"
    },
    {
        "region": "Ashanti",
        "district": "Ejisu-Juaben Municipal",
        "facilityname": "Memorial Maternity Home",
        "type": "Maternity Home",
        "town": "Okyerekrom",
        "ownership": "Private",
        "latitude": "6.72122",
        "longitude": "-1.52589"
    },
    {
        "region": "Ashanti",
        "district": "Afigya-Kwabre",
        "facilityname": "Methodist Faith Healing Hospital",
        "type": "District Hospital",
        "town": "Ankaase",
        "ownership": "CHAG",
        "latitude": "6.84819",
        "longitude": "-1.54934"
    },
    {
        "region": "Ashanti",
        "district": "Amansie Central",
        "facilityname": "Mile 14 Community Clinic",
        "type": "Clinic",
        "town": "Mile 14",
        "ownership": "Government",
        "latitude": "6.22126",
        "longitude": "-1.82139"
    },
    {
        "region": "Ashanti",
        "district": "Asante-Akim South",
        "facilityname": "Morso Clinic",
        "type": "Clinic",
        "town": "Morso",
        "ownership": "Government",
        "latitude": "6.65518",
        "longitude": "-1.10681"
    },
    {
        "region": "Ashanti",
        "district": "Amansie West",
        "facilityname": "Mother of God Clinic",
        "type": "Clinic",
        "town": "Esaase",
        "ownership": "CHAG",
        "latitude": "6.55942",
        "longitude": "-1.89046"
    },
    {
        "region": "Ashanti",
        "district": "Ahafo-Ano South",
        "facilityname": "Mpasaso Health Centre",
        "type": "Health Centre",
        "town": "Mpasaso",
        "ownership": "Government",
        "latitude": "6.80274",
        "longitude": "-2.13864"
    },
    {
        "region": "Ashanti",
        "district": "Amansie West",
        "facilityname": "Mpatuom RCH",
        "type": "RCH",
        "town": "Mpatuom",
        "ownership": "Government",
        "latitude": "6.54088",
        "longitude": "-1.93215"
    },
    {
        "region": "Ashanti",
        "district": "Afigya-Kwabre",
        "facilityname": "Mpobi RCH",
        "type": "RCH",
        "town": "Mpobi",
        "ownership": "Government",
        "latitude": "6.84775",
        "longitude": "-1.56165"
    },
    {
        "region": "Ashanti",
        "district": "Asante-Akim South",
        "facilityname": "Muranaim Health Centre",
        "type": "Health Centre",
        "town": "Muronam",
        "ownership": "Government",
        "latitude": "6.24703",
        "longitude": "-1.20566"
    },
    {
        "region": "Ashanti",
        "district": "Mampong Municipal",
        "facilityname": "Nadaworoma Clinic",
        "type": "Clinic",
        "town": "Mampong New Town",
        "ownership": "Private",
        "latitude": "7.06598",
        "longitude": "-1.40213"
    },
    {
        "region": "Ashanti",
        "district": "Atwima-Nwabiagya",
        "facilityname": "Nana Frema Maternity Home",
        "type": "Maternity Home",
        "town": "Adankwame",
        "ownership": "Private",
        "latitude": "7",
        "longitude": "-2"
    },
    {
        "region": "Ashanti",
        "district": "Bekwai Municipal",
        "facilityname": "Nancy Powel's Clinic",
        "type": "Clinic",
        "town": "Tebeso #2",
        "ownership": "CHAG",
        "latitude": "6.31788",
        "longitude": "-1.30804"
    },
    {
        "region": "Ashanti",
        "district": "Obuasi Municipal",
        "facilityname": "Neighbourhood    Clinic",
        "type": "Clinic",
        "town": "Abompe    New  Site",
        "ownership": "Private",
        "latitude": "6.21889",
        "longitude": "-1.67117"
    },
    {
        "region": "Ashanti",
        "district": "Adansi North",
        "facilityname": "New Ayaasi Adom Maternity Home",
        "type": "Health Centre",
        "town": "New Ayaasi",
        "ownership": "Private",
        "latitude": "6.29641",
        "longitude": "-1.52338"
    },
    {
        "region": "Ashanti",
        "district": "Adansi South",
        "facilityname": "New Edubiase Hospital",
        "type": "District Hospital",
        "town": "New Edubiase",
        "ownership": "Government",
        "latitude": "6.05456",
        "longitude": "-1.39281"
    },
    {
        "region": "Ashanti",
        "district": "Bekwai Municipal",
        "facilityname": "New Life Clinic",
        "type": "Clinic",
        "town": "Apau",
        "ownership": "CHAG",
        "latitude": "6.47284",
        "longitude": "-1.43677"
    },
    {
        "region": "Ashanti",
        "district": "Amansie West",
        "facilityname": "Nipankyeremia CHPS",
        "type": "CHPS",
        "town": "Nipankyeremia",
        "ownership": "Government",
        "latitude": "6.37002",
        "longitude": "-2.15827"
    },
    {
        "region": "Ashanti",
        "district": "Atwima-Nwabiagya",
        "facilityname": "Nkawie\/Toase Hospital",
        "type": "Hospital",
        "town": "Nkawie",
        "ownership": "Government",
        "latitude": "7",
        "longitude": "-2"
    },
    {
        "region": "Ashanti",
        "district": "Offinso North",
        "facilityname": "Nkenkasu District Hospital",
        "type": "District Hospital",
        "town": "Nkenkasu",
        "ownership": "Government",
        "latitude": "7.31957",
        "longitude": "-1.90289"
    },
    {
        "region": "Ashanti",
        "district": "Ejura Sekyeredumasi",
        "facilityname": "Nkwanta Community Clinic",
        "type": "Clinic",
        "town": "Ejura Nkwanta",
        "ownership": "Government",
        "latitude": "7.51378",
        "longitude": "-1.34725"
    },
    {
        "region": "Ashanti",
        "district": "Asante-Akim South",
        "facilityname": "Nnadieso Health Centre",
        "type": "Health Centre",
        "town": "Nnadieso",
        "ownership": "Government",
        "latitude": "6.59956",
        "longitude": "-1.09206"
    },
    {
        "region": "Ashanti",
        "district": "Ejisu-Juaben Municipal",
        "facilityname": "Nobewam SDA Clinic",
        "type": "Clinic",
        "town": "Nobewam",
        "ownership": "CHAG",
        "latitude": "6.62289",
        "longitude": "-1.23985"
    },
    {
        "region": "Ashanti",
        "district": "Sekyere Central",
        "facilityname": "Nsutaman Health Centre",
        "type": "Health Centre",
        "town": "Nsuta",
        "ownership": "Government",
        "latitude": "7.00861",
        "longitude": "-1.38146"
    },
    {
        "region": "Ashanti",
        "district": "Atwima-Mponua",
        "facilityname": "Ntobroso Health Centre",
        "type": "Health Centre",
        "town": "Ntobroso",
        "ownership": "Government",
        "latitude": "6.53571",
        "longitude": "-2.04245"
    },
    {
        "region": "Ashanti",
        "district": "Amansie Central",
        "facilityname": "Numereso Health Centre",
        "type": "Health Centre",
        "town": "Numereso",
        "ownership": "Government",
        "latitude": "6.07568",
        "longitude": "-1.85459"
    },
    {
        "region": "Ashanti",
        "district": "Asante-Akim North Municipal",
        "facilityname": "Nutrition Rehabilitation Centre",
        "type": "Clinic",
        "town": "Konongo",
        "ownership": "Government",
        "latitude": "6.79529",
        "longitude": "-1.08871"
    },
    {
        "region": "Ashanti",
        "district": "Atwima-Nwabiagya",
        "facilityname": "Nyama Maternity Home",
        "type": "Maternity Home",
        "town": "Achiase",
        "ownership": "Private",
        "latitude": "7",
        "longitude": "-2"
    },
    {
        "region": "Ashanti",
        "district": "Amansie West",
        "facilityname": "Nyame Akwan Maternity",
        "type": "Maternity Home",
        "town": "Mpatoum",
        "ownership": "Private",
        "latitude": "6.54096",
        "longitude": "-1.93229"
    },
    {
        "region": "Ashanti",
        "district": "Atwima-Mponua",
        "facilityname": "Nyinahin Government Hospital",
        "type": "District Hospital",
        "town": "Nyinahin",
        "ownership": "Government",
        "latitude": "6.60115",
        "longitude": "-2.10999"
    },
    {
        "region": "Ashanti",
        "district": "Asante-Akim South",
        "facilityname": "Obogu Health Centre",
        "type": "Health Centre",
        "town": "Obogu",
        "ownership": "Government",
        "latitude": "6.51484",
        "longitude": "-1.11586"
    },
    {
        "region": "Ashanti",
        "district": "Adansi South",
        "facilityname": "Obonsu Clinic",
        "type": "Clinic",
        "town": "Obonsu",
        "ownership": "Government",
        "latitude": "5.95324",
        "longitude": "-1.35225"
    },
    {
        "region": "Ashanti",
        "district": "Obuasi Municipal",
        "facilityname": "Obuasi Government Hospital",
        "type": "Hospital",
        "town": "Obuasi",
        "ownership": "Government",
        "latitude": "6.1213",
        "longitude": "-1.4105"
    },
    {
        "region": "Ashanti",
        "district": "Amansie West",
        "facilityname": "Odaho RCH",
        "type": "RCH",
        "town": "Odaho",
        "ownership": "Government",
        "latitude": "6.27381",
        "longitude": "-1.96832"
    },
    {
        "region": "Ashanti",
        "district": "Offinso Municipal",
        "facilityname": "Offinso Health Centre",
        "type": "Health Centre",
        "town": "Offinso",
        "ownership": "Government",
        "latitude": "6.93782",
        "longitude": "-1.67504"
    },
    {
        "region": "Ashanti",
        "district": "Asante-Akim South",
        "facilityname": "Ofoase Health Centre",
        "type": "Health Centre",
        "town": "Ofoase",
        "ownership": "Government",
        "latitude": "6.37813",
        "longitude": "-1.26746"
    },
    {
        "region": "Ashanti",
        "district": "Sekyere East",
        "facilityname": "Okaikrom Health Centre",
        "type": "Health Centre",
        "town": "Okaikrom",
        "ownership": "Government",
        "latitude": "6.82612",
        "longitude": "-1.30866"
    },
    {
        "region": "Ashanti",
        "district": "Sekyere Central",
        "facilityname": "Catholic Clinic, Oku",
        "type": "Clinic",
        "town": "Oku",
        "ownership": "CHAG",
        "latitude": "7.34796",
        "longitude": "-1.00318"
    },
    {
        "region": "Ashanti",
        "district": "Afigya-Kwabre",
        "facilityname": "Owusua Maternity Home",
        "type": "Maternity Home",
        "town": "Bronkong",
        "ownership": "Private",
        "latitude": "6.77474",
        "longitude": "-1.63906"
    },
    {
        "region": "Ashanti",
        "district": "Sekyere Afram Plains",
        "facilityname": "Oyoko Our Lady Maternity Home",
        "type": "Maternity Home",
        "town": "Oyoko",
        "ownership": "Private",
        "latitude": "6.86521",
        "longitude": "-1.38976"
    },
    {
        "region": "Ashanti",
        "district": "Ejisu-Juaben Municipal",
        "facilityname": "Paradyse Clinic",
        "type": "Clinic",
        "town": "Ejisu",
        "ownership": "Private",
        "latitude": "6.72105",
        "longitude": "-1.47262"
    },
    {
        "region": "Ashanti",
        "district": "Sekyere Afram Plains",
        "facilityname": "Peace and Comfort Maternity Clinic",
        "type": "Maternity Home",
        "town": "Kumawu Bodomasi",
        "ownership": "Private",
        "latitude": "6.89428",
        "longitude": "-1.25522"
    },
    {
        "region": "Ashanti",
        "district": "Atwima-Nwabiagya",
        "facilityname": "Peace Homeo Medical Centre",
        "type": "Clinic",
        "town": "Ntensere",
        "ownership": "Private",
        "latitude": "7",
        "longitude": "-2"
    },
    {
        "region": "Ashanti",
        "district": "Ejisu-Juaben Municipal",
        "facilityname": "Peminase Maternity Home",
        "type": "Maternity Home",
        "town": "Peminase",
        "ownership": "Government",
        "latitude": "6.52668",
        "longitude": "-1.31086"
    },
    {
        "region": "Ashanti",
        "district": "Ahafo-Ano South",
        "facilityname": "Pokukrom Health Centre",
        "type": "Health Centre",
        "town": "Pokukrom",
        "ownership": "Government",
        "latitude": "7.00378",
        "longitude": "-1.95239"
    },
    {
        "region": "Ashanti",
        "district": "Asante-Akim North Municipal",
        "facilityname": "Praaso Health Centre",
        "type": "Health Centre",
        "town": "Praaso",
        "ownership": "Government",
        "latitude": "6.51556",
        "longitude": "-1.26672"
    },
    {
        "region": "Ashanti",
        "district": "Offinso Municipal",
        "facilityname": "Quality Care Clinic",
        "type": "Clinic",
        "town": "Offinso Adikuro",
        "ownership": "Private",
        "latitude": "6.95019",
        "longitude": "-1.67263"
    },
    {
        "region": "Ashanti",
        "district": "Ejisu-Juaben Municipal",
        "facilityname": "Queen Victoria Maternity Home and Clinic",
        "type": "Maternity Home",
        "town": "Serwaa Akura",
        "ownership": "Private",
        "latitude": "6.72345",
        "longitude": "-1.47869"
    },
    {
        "region": "Ashanti",
        "district": "Obuasi Municipal",
        "facilityname": "Redemption Bible Way Clinic and Laboratory",
        "type": "Clinic",
        "town": "Rams Hill",
        "ownership": "Private",
        "latitude": "6.20121",
        "longitude": "-1.66393"
    },
    {
        "region": "Ashanti",
        "district": "Amansie West",
        "facilityname": "Resolute Amansie",
        "type": "Clinic",
        "town": "Manso Nkran",
        "ownership": "Quasi-Government",
        "latitude": "6.34571",
        "longitude": "-1.98979"
    },
    {
        "region": "Ashanti",
        "district": "Ejisu-Juaben Municipal",
        "facilityname": "Rev. Walker Medical Centre",
        "type": "Clinic",
        "town": "Kokobra",
        "ownership": "Private",
        "latitude": "6.71394",
        "longitude": "-1.52192"
    },
    {
        "region": "Ashanti",
        "district": "Asante-Akim South",
        "facilityname": "Rose Maternity Home",
        "type": "Maternity Home",
        "town": "Obogu",
        "ownership": "Private",
        "latitude": "6.52025",
        "longitude": "-1.12042"
    },
    {
        "region": "Ashanti",
        "district": "Ahafo-Ano South",
        "facilityname": "Sabronum  Health Centre",
        "type": "Health Centre",
        "town": "Sabronum",
        "ownership": "Government",
        "latitude": "7.08809",
        "longitude": "-1.89095"
    },
    {
        "region": "Ashanti",
        "district": "Sekyere South",
        "facilityname": "Sacred Heart Maternity Clinic",
        "type": "Clinic",
        "town": "Bepoase",
        "ownership": "CHAG",
        "latitude": "7.08676",
        "longitude": "-1.55514"
    },
    {
        "region": "Ashanti",
        "district": "Atwima-Mponua",
        "facilityname": "Saakrom Health Centre",
        "type": "Health Centre",
        "town": "Saakrom",
        "ownership": "Government",
        "latitude": "6.75871",
        "longitude": "-2.02993"
    },
    {
        "region": "Ashanti",
        "district": "Sekyere South",
        "facilityname": "Salvation Army Clinic",
        "type": "Hospital",
        "town": "Wiamoase",
        "ownership": "CHAG",
        "latitude": "7.05213",
        "longitude": "-1.52521"
    },
    {
        "region": "Ashanti",
        "district": "Mampong Municipal",
        "facilityname": "SDA Clinic Apaa",
        "type": "Clinic",
        "town": "Apaa",
        "ownership": "CHAG",
        "latitude": "6.97086",
        "longitude": "-1.44302"
    },
    {
        "region": "Ashanti",
        "district": "Bekwai Municipal",
        "facilityname": "SDA Hospital",
        "type": "Hospital",
        "town": "Dominase",
        "ownership": "CHAG",
        "latitude": "6.3104",
        "longitude": "-1.3911"
    },
    {
        "region": "Ashanti",
        "district": "Ejisu-Juaben Municipal",
        "facilityname": "SDA Hospital",
        "type": "Hospital",
        "town": "Onwe",
        "ownership": "CHAG",
        "latitude": "6.68001",
        "longitude": "-1.54161"
    },
    {
        "region": "Ashanti",
        "district": "Sekyere South",
        "facilityname": "SDA Hospital Asamang",
        "type": "Hospital",
        "town": "Asamang",
        "ownership": "CHAG",
        "latitude": "7.05322",
        "longitude": "-1.50964"
    },
    {
        "region": "Ashanti",
        "district": "Sekyere South",
        "facilityname": "SDA Hospital Wiamoase",
        "type": "Hospital",
        "town": "Wiamose",
        "ownership": "CHAG",
        "latitude": "6.90258",
        "longitude": "-1.43311"
    },
    {
        "region": "Ashanti",
        "district": "Ejura Sekyeredumasi",
        "facilityname": "Sekyedumase Health Centre",
        "type": "Health Centre",
        "town": "Sekyedumase Health Centre",
        "ownership": "Government",
        "latitude": "7.31352",
        "longitude": "-1.57912"
    },
    {
        "region": "Ashanti",
        "district": "Sekyere East",
        "facilityname": "Sekyere Health Centre",
        "type": "Health Centre",
        "town": "Sekyere",
        "ownership": "Government",
        "latitude": "6.92692",
        "longitude": "-1.37465"
    },
    {
        "region": "Ashanti",
        "district": "Sekyere East",
        "facilityname": "Sekyere Methodist Clinic",
        "type": "Clinic",
        "town": "Sekyere",
        "ownership": "CHAG",
        "latitude": "6.92646",
        "longitude": "-1.37494"
    },
    {
        "region": "Ashanti",
        "district": "Sekyere East",
        "facilityname": "Senchie Methodist Clinic",
        "type": "Clinic",
        "town": "Senkyi",
        "ownership": "CHAG",
        "latitude": "6.80818",
        "longitude": "-1.32507"
    },
    {
        "region": "Ashanti",
        "district": "Amansie West",
        "facilityname": "Shalom Clinic",
        "type": "Health Centre",
        "town": "Watreso",
        "ownership": "CHAG",
        "latitude": "6.25351",
        "longitude": "-1.91797"
    },
    {
        "region": "Ashanti",
        "district": "Bekwai Municipal",
        "facilityname": "Shalom Methodist Clinic",
        "type": "Clinic",
        "town": "Nsuaem #2",
        "ownership": "CHAG",
        "latitude": "6.36494",
        "longitude": "-1.36645"
    },
    {
        "region": "Ashanti",
        "district": "Adansi South",
        "facilityname": "Sikaman Health Centre",
        "type": "Health Centre",
        "town": "Sikaman",
        "ownership": "Government",
        "latitude": "6.11499",
        "longitude": "-1.58045"
    },
    {
        "region": "Ashanti",
        "district": "Mampong Municipal",
        "facilityname": "Sister Philipa Maternity Home",
        "type": "Maternity Home",
        "town": "Mampong Kokoase",
        "ownership": "Private",
        "latitude": "7.05921",
        "longitude": "-1.39703"
    },
    {
        "region": "Ashanti",
        "district": "Atwima-Mponua",
        "facilityname": "Sreso Tinpom Health Centre",
        "type": "Health Centre",
        "town": "Sreso Tinpom",
        "ownership": "Government",
        "latitude": "6.62201",
        "longitude": "-2.30317"
    },
    {
        "region": "Ashanti",
        "district": "Sekyere East",
        "facilityname": "St Luke Clinic",
        "type": "Clinic",
        "town": "Seniagya",
        "ownership": "CHAG",
        "latitude": "6.79774",
        "longitude": "-1.32026"
    },
    {
        "region": "Ashanti",
        "district": "Ejisu-Juaben Municipal",
        "facilityname": "St. Annes Maternity Clinic",
        "type": "Clinic",
        "town": "Donyina",
        "ownership": "CHAG",
        "latitude": "6.63994",
        "longitude": "-1.49782"
    },
    {
        "region": "Ashanti",
        "district": "Ahafo-Ano South",
        "facilityname": "St. Anns Maternity Home",
        "type": "Maternity Home",
        "town": "Essibey Nkwata",
        "ownership": "Private",
        "latitude": "6.84578",
        "longitude": "-1.76006"
    },
    {
        "region": "Ashanti",
        "district": "Ejura Sekyeredumasi",
        "facilityname": "St. Anthony Maternity Clinic",
        "type": "Maternity Home",
        "town": "Anyinasu",
        "ownership": "Government",
        "latitude": "7.22643",
        "longitude": "-1.58011"
    },
    {
        "region": "Ashanti",
        "district": "Ahafo-Ano South",
        "facilityname": "St. Edwards Clinic",
        "type": "Health Centre",
        "town": "Adwinyama",
        "ownership": "CHAG",
        "latitude": "6.88014",
        "longitude": "-1.87428"
    },
    {
        "region": "Ashanti",
        "district": "Ahafo-Ano South",
        "facilityname": "St. Johns Clinic",
        "type": "Health Centre",
        "town": "Domeabra",
        "ownership": "CHAG",
        "latitude": "6.87183",
        "longitude": "-2.05678"
    },
    {
        "region": "Ashanti",
        "district": "Kwabre",
        "facilityname": "St. Joseph's Clinic.",
        "type": "Clinic",
        "town": "Abira",
        "ownership": "CHAG",
        "latitude": "6.77928",
        "longitude": "-1.49126"
    },
    {
        "region": "Ashanti",
        "district": "Obuasi Municipal",
        "facilityname": "St. Jude Hospital  Ltd.",
        "type": "Hospital",
        "town": "Bedieso-Obuasi",
        "ownership": "Private",
        "latitude": "6.20723",
        "longitude": "-1.68137"
    },
    {
        "region": "Ashanti",
        "district": "Ejura Sekyeredumasi",
        "facilityname": "St. Luke Hospital Kasei",
        "type": "Hospital",
        "town": "Kasei",
        "ownership": "CHAG",
        "latitude": "7.53953",
        "longitude": "-1.34637"
    },
    {
        "region": "Ashanti",
        "district": "Amansie West",
        "facilityname": "St. Martin's  Hospital",
        "type": "Hospital",
        "town": "Agroyesum",
        "ownership": "CHAG",
        "latitude": "6.41337",
        "longitude": "-1.88154"
    },
    {
        "region": "Ashanti",
        "district": "Amansie West",
        "facilityname": "St. Martin's Catholic Clinic",
        "type": "Clinic",
        "town": "Abuoso",
        "ownership": "CHAG",
        "latitude": "6.31346",
        "longitude": "-2.10902"
    },
    {
        "region": "Ashanti",
        "district": "Bekwai Municipal",
        "facilityname": "St. Mary's Clinic",
        "type": "Clinic",
        "town": "Yapesa",
        "ownership": "CHAG",
        "latitude": "6.45121",
        "longitude": "-1.36836"
    },
    {
        "region": "Ashanti",
        "district": "Ahafo-Ano South",
        "facilityname": "St. Michael Clinic",
        "type": "Clinic",
        "town": "Dwenwoho",
        "ownership": "Private",
        "latitude": "6.85935",
        "longitude": "-1.75623"
    },
    {
        "region": "Ashanti",
        "district": "Atwima-Nwabiagya",
        "facilityname": "St. Micheal Maternity Home",
        "type": "Maternity Home",
        "town": "Achiase",
        "ownership": "Private",
        "latitude": "7",
        "longitude": "-2"
    },
    {
        "region": "Ashanti",
        "district": "Offinso Municipal",
        "facilityname": "St. Patricks Hospital",
        "type": "Hospital",
        "town": "Offinso",
        "ownership": "CHAG",
        "latitude": "6.93135",
        "longitude": "-1.68167"
    },
    {
        "region": "Ashanti",
        "district": "Atwima-Mponua",
        "facilityname": "St. Peters Clinic",
        "type": "Clinic",
        "town": "Ntobroso",
        "ownership": "CHAG",
        "latitude": "6.53511",
        "longitude": "-2.04218"
    },
    {
        "region": "Ashanti",
        "district": "Amansie Central",
        "facilityname": "St. Peters' Hospital",
        "type": "Hospital",
        "town": "Jacobu",
        "ownership": "CHAG",
        "latitude": "6.34331",
        "longitude": "-1.66669"
    },
    {
        "region": "Ashanti",
        "district": "Bekwai Municipal",
        "facilityname": "St. Stephen's Clinic",
        "type": "Clinic",
        "town": "Huntade",
        "ownership": "Private",
        "latitude": "6.4804",
        "longitude": "-1.4951"
    },
    {
        "region": "Ashanti",
        "district": "Afigya-Kwabre",
        "facilityname": "St. Theresa's Maternity Home",
        "type": "Maternity Home",
        "town": "Atimatim",
        "ownership": "Private",
        "latitude": "6.76359",
        "longitude": "-1.61093"
    },
    {
        "region": "Ashanti",
        "district": "Amansie Central",
        "facilityname": "St. Thomas General and Maternity Clinic",
        "type": "Clinic",
        "town": "Hia",
        "ownership": "CHAG",
        "latitude": "6.20804",
        "longitude": "-1.77649"
    },
    {
        "region": "Ashanti",
        "district": "Sekyere Afram Plains",
        "facilityname": "St. Vincent Clinic",
        "type": "Clinic",
        "town": "Drobonso",
        "ownership": "CHAG",
        "latitude": "7.00714",
        "longitude": "-1.12747"
    },
    {
        "region": "Ashanti",
        "district": "Ahafo-Ano North",
        "facilityname": "Subriso Health Centre",
        "type": "Health Centre",
        "town": "Subriso",
        "ownership": "Government",
        "latitude": "6.81613",
        "longitude": "-2.26676"
    },
    {
        "region": "Ashanti",
        "district": "Ejisu-Juaben Municipal",
        "facilityname": "Super Care Hospital",
        "type": "Hospital",
        "town": "Krapa-Ejisu",
        "ownership": "Private",
        "latitude": "6.72023",
        "longitude": "-1.48104"
    },
    {
        "region": "Ashanti",
        "district": "Atwima-Mponua",
        "facilityname": "Tano-Odumasi Health Centre",
        "type": "Health Centre",
        "town": "Tano-Odumasi",
        "ownership": "CHAG",
        "latitude": "6.49705",
        "longitude": "-2.39662"
    },
    {
        "region": "Ashanti",
        "district": "Ahafo-Ano North",
        "facilityname": "Tepa District Hospital",
        "type": "District Hospital",
        "town": "Tepa",
        "ownership": "Government",
        "latitude": "6.99966",
        "longitude": "-2.16102"
    },
    {
        "region": "Ashanti",
        "district": "Afigya-Kwabre",
        "facilityname": "Tetrem Health Centre",
        "type": "Health Centre",
        "town": "Tetrem",
        "ownership": "Government",
        "latitude": "7.03743",
        "longitude": "-1.63735"
    },
    {
        "region": "Ashanti",
        "district": "Obuasi Municipal",
        "facilityname": "The Queens Maternity Home",
        "type": "Maternity Home",
        "town": "New Estate-Obuasi",
        "ownership": "Private",
        "latitude": "6.20762",
        "longitude": "-1.67233"
    },
    {
        "region": "Ashanti",
        "district": "Ejisu-Juaben Municipal",
        "facilityname": "Tikrom Clinic",
        "type": "Clinic",
        "town": "Tikrom",
        "ownership": "Government",
        "latitude": "6.73154",
        "longitude": "-1.51337"
    },
    {
        "region": "Ashanti",
        "district": "Bekwai Municipal",
        "facilityname": "Tinkwamah Maternity Home",
        "type": "Maternity Home",
        "town": "Amoaful",
        "ownership": "Private",
        "latitude": "6.45139",
        "longitude": "-1.56537"
    },
    {
        "region": "Ashanti",
        "district": "Atwima-Nwabiagya",
        "facilityname": "Toase Clinic",
        "type": "Clinic",
        "town": "Toase",
        "ownership": "Private",
        "latitude": "7",
        "longitude": "-2"
    },
    {
        "region": "Ashanti",
        "district": "Atwima-Kwanwoma",
        "facilityname": "Trabuom Health Centre",
        "type": "Health Centre",
        "town": "Trabuom",
        "ownership": "Government",
        "latitude": "6.61142",
        "longitude": "-1.76252"
    },
    {
        "region": "Ashanti",
        "district": "Atwima-Kwanwoma",
        "facilityname": "Trede Health Centre",
        "type": "Health Centre",
        "town": "Trede",
        "ownership": "Government",
        "latitude": "6.57803",
        "longitude": "-1.66859"
    },
    {
        "region": "Ashanti",
        "district": "Obuasi Municipal",
        "facilityname": "Twumwaa Maternity Home",
        "type": "Maternity Home",
        "town": "Brahabebome",
        "ownership": "Private",
        "latitude": "6.19277",
        "longitude": "-1.62455"
    },
    {
        "region": "Ashanti",
        "district": "Atwima-Mponua",
        "facilityname": "Victory Christ Maternity Home",
        "type": "Maternity Home",
        "town": "Mpasatia",
        "ownership": "Private",
        "latitude": "6.65836",
        "longitude": "-1.84223"
    },
    {
        "region": "Ashanti",
        "district": "Obuasi Municipal",
        "facilityname": "Watt 250 Maternity  Home",
        "type": "Maternity Home",
        "town": "Kwabrafoso",
        "ownership": "Private",
        "latitude": "6.19917",
        "longitude": "-1.65556"
    },
    {
        "region": "Ashanti",
        "district": "Sekyere Afram Plains",
        "facilityname": "Westphalian Hospital Complex",
        "type": "Hospital",
        "town": "Oyoko",
        "ownership": "Private",
        "latitude": "6.86802",
        "longitude": "-1.39049"
    },
    {
        "region": "Ashanti",
        "district": "Sekyere South",
        "facilityname": "Wiamoase Clinic",
        "type": "Clinic",
        "town": "Wiamoase",
        "ownership": "Private",
        "latitude": "7.05264",
        "longitude": "-1.50265"
    },
    {
        "region": "Ashanti",
        "district": "Adansi North",
        "facilityname": "Wioso Health Centre",
        "type": "Health Centre",
        "town": "Wioso",
        "ownership": "Government",
        "latitude": "6.28179",
        "longitude": "-1.66127"
    },
    {
        "region": "Ashanti",
        "district": "Ahafo-Ano South",
        "facilityname": "Wioso Methodist Clinic",
        "type": "Clinic",
        "town": "Wioso",
        "ownership": "CHAG",
        "latitude": "6.95583",
        "longitude": "-2.00654"
    },
    {
        "region": "Ashanti",
        "district": "Kwabre",
        "facilityname": "Wonoo Health Centre",
        "type": "Health Centre",
        "town": "Sakora Wonoo",
        "ownership": "Government",
        "latitude": "6.79751",
        "longitude": "-1.50148"
    },
    {
        "region": "Ashanti",
        "district": "Sekyere Afram Plains",
        "facilityname": "Woraso Health Centre",
        "type": "Health Centre",
        "town": "Woraso",
        "ownership": "Government",
        "latitude": "6.87636",
        "longitude": "-1.27658"
    },
    {
        "region": "Ashanti",
        "district": "Ejisu-Juaben Municipal",
        "facilityname": "Yaa Asantewaa Maternity Clinic",
        "type": "Maternity Home",
        "town": "Ejisu",
        "ownership": "Private",
        "latitude": "6.72505",
        "longitude": "-1.46998"
    },
    {
        "region": "Ashanti",
        "district": "Ejura Sekyeredumasi",
        "facilityname": "Zambrama Community Clinic",
        "type": "Clinic",
        "town": "Zambrama",
        "ownership": "Government",
        "latitude": "7.52022",
        "longitude": "-1.42013"
    },
    {
        "region": "Ashanti",
        "district": "Asante-Akim North Municipal",
        "facilityname": "Agogo Nurses Training Coll",
        "type": "Training Institution",
        "town": "Agogo",
        "ownership": "Government",
        "latitude": "6.87691",
        "longitude": "-1.02032"
    },
    {
        "region": "Ashanti",
        "district": "Offinso Municipal",
        "facilityname": "Offinso Nurses\/Midwifery Training School",
        "type": "Training Institution",
        "town": "Offinso",
        "ownership": "Government",
        "latitude": "6.81743",
        "longitude": "-1.33358"
    },
    {
        "region": "Ashanti",
        "district": "Adansi North",
        "facilityname": "Fomena Community Health Nurses Training School",
        "type": "Training Institution",
        "town": "Fomena",
        "ownership": "Government",
        "latitude": "6.27754",
        "longitude": "-1.63722"
    },
    {
        "region": "Ashanti",
        "district": "Bekwai Municipal",
        "facilityname": "Kokofu Health Assistants Training School",
        "type": "Training Institution",
        "town": "Kokofu",
        "ownership": "Government",
        "latitude": "6.45",
        "longitude": "-1.58333"
    },
    {
        "region": "Ashanti",
        "district": "Ahafo-Ano North",
        "facilityname": "Tepa Health Assistants Training School",
        "type": "Training Institution",
        "town": "Tepa",
        "ownership": "Government",
        "latitude": "6.95848",
        "longitude": "-2.26304"
    },
    {
        "region": "Ashanti",
        "district": "Asante-Akim South",
        "facilityname": "Juaso SABS Hospital",
        "type": "Hospital",
        "town": "Juaso",
        "ownership": "Private",
        "latitude": "6.53446",
        "longitude": "-1.09694"
    },
    {
        "region": "Ashanti",
        "district": "Asante-Akim South",
        "facilityname": "Pra River Apostolic Clinic",
        "type": "Clinic",
        "town": "Pra River",
        "ownership": "CHAG",
        "latitude": "6.53446",
        "longitude": "-1.09694"
    },
    {
        "region": "Ashanti",
        "district": "Atwima-Nwabiagya",
        "facilityname": "Abuakwa Madonna Health Centre",
        "type": "Health Centre",
        "town": "Abuakwa",
        "ownership": "Government",
        "latitude": "6.59721",
        "longitude": "-1.579"
    },
    {
        "region": "Ashanti",
        "district": "Atwima-Nwabiagya",
        "facilityname": "Nkawie Clinic",
        "type": "Clinic",
        "town": "Nkawie",
        "ownership": "Private",
        "latitude": "6.59721",
        "longitude": "-1.579"
    },
    {
        "region": "Ashanti",
        "district": "Atwima-Nwabiagya",
        "facilityname": "Achiase Nyama Maternity Home",
        "type": "Maternity Home",
        "town": "Achiase",
        "ownership": "Private",
        "latitude": "6.59721",
        "longitude": "-1.579"
    },
    {
        "region": "Ashanti",
        "district": "Atwima-Nwabiagya",
        "facilityname": "Nerebehi Health Centre",
        "type": "Health Centre",
        "town": "Nerebehi",
        "ownership": "Government",
        "latitude": "6.59721",
        "longitude": "-1.579"
    },
    {
        "region": "Ashanti",
        "district": "Atwima-Mponua",
        "facilityname": "Anyinamso Maternity Home",
        "type": "Maternity Home",
        "town": "Anyinamso",
        "ownership": "Private",
        "latitude": "6.65884",
        "longitude": "-2.22367"
    },
    {
        "region": "Ashanti",
        "district": "Atwima-Mponua",
        "facilityname": "Mpasatia Health Centre",
        "type": "Health Centre",
        "town": "Mpasatia",
        "ownership": "Government",
        "latitude": "6.65884",
        "longitude": "-2.22367"
    },
    {
        "region": "Ashanti",
        "district": "Atwima-Mponua",
        "facilityname": "Kotokuom Health Centre",
        "type": "Health Centre",
        "town": "Kotokuom",
        "ownership": "Government",
        "latitude": "6.65884",
        "longitude": "-2.22367"
    },
    {
        "region": "Ashanti",
        "district": "Ejura Sekyeredumasi",
        "facilityname": "Anyinasu SDA Clinic",
        "type": "Clinic",
        "town": "Anyinaso",
        "ownership": "CHAG",
        "latitude": "7.38333",
        "longitude": "-1.36667"
    },
    {
        "region": "Ashanti",
        "district": "Ahafo-Ano North",
        "facilityname": "Ante Amma Maternity Home",
        "type": "Maternity Home",
        "town": "Abonsuaso",
        "ownership": "Private",
        "latitude": "6.95848",
        "longitude": "-2.26304"
    },
    {
        "region": "Ashanti",
        "district": "Ahafo-Ano North",
        "facilityname": "Adom Nyame Clinic",
        "type": "Clinic",
        "town": "Abonsuaso",
        "ownership": "Private",
        "latitude": "6.95848",
        "longitude": "-2.26304"
    },
    {
        "region": "Ashanti",
        "district": "Ahafo-Ano North",
        "facilityname": "Janet Maternity Home",
        "type": "Maternity Home",
        "town": "Anyinasuso",
        "ownership": "Private",
        "latitude": "6.95848",
        "longitude": "-2.26304"
    },
    {
        "region": "Ashanti",
        "district": "Mampong Municipal",
        "facilityname": "Mampong Municipal Health Directorate",
        "type": "Municipal Health Directorate",
        "town": "Mampong",
        "ownership": "Government",
        "latitude": "6.95848",
        "longitude": "-2.26304"
    },
    {
        "region": "Ashanti",
        "district": "Mampong Municipal",
        "facilityname": "Mampong Midwifery Training School",
        "type": "Training Institution",
        "town": "Mampong",
        "ownership": "Government",
        "latitude": "7.02345",
        "longitude": "-1.23598"
    },
    {
        "region": "Ashanti",
        "district": "Mampong Municipal",
        "facilityname": "Mampong Health Assistants Training School",
        "type": "Training Institution",
        "town": "Mampong",
        "ownership": "Government",
        "latitude": "7.02321",
        "longitude": "-0.23593"
    },
    {
        "region": "Ashanti",
        "district": "Mampong Municipal",
        "facilityname": "Mampong Government Hospital",
        "type": "Hospital",
        "town": "Mampong",
        "ownership": "Government",
        "latitude": "7.06068",
        "longitude": "-1.40443"
    },
    {
        "region": "Ashanti",
        "district": "Mampong Municipal",
        "facilityname": "Mampong Phillipa  Maternity Home",
        "type": "Clinic",
        "town": "Mampong",
        "ownership": "Private",
        "latitude": "7.06068",
        "longitude": "-1.40443"
    },
    {
        "region": "Ashanti",
        "district": "Mampong Municipal",
        "facilityname": "Mampong Nadaworoma Maternity Home",
        "type": "Clinic",
        "town": "Mampong",
        "ownership": "Private",
        "latitude": "7.06068",
        "longitude": "-1.40443"
    },
    {
        "region": "Ashanti",
        "district": "Mampong Municipal",
        "facilityname": "Adidwan Health Centre",
        "type": "Health Centre",
        "town": "Adidwan",
        "ownership": "Government",
        "latitude": "7.15067",
        "longitude": "-0.24102"
    },
    {
        "region": "Ashanti",
        "district": "Mampong Municipal",
        "facilityname": "Mampong Quality Hospital",
        "type": "Hospital",
        "town": "Mampong",
        "ownership": "Private",
        "latitude": "7.15067",
        "longitude": "-0.24102"
    },
    {
        "region": "Ashanti",
        "district": "Mampong Municipal",
        "facilityname": "Apaa Sda Clinic",
        "type": "Clinic",
        "town": "Apaa",
        "ownership": "CHAG",
        "latitude": "7.15067",
        "longitude": "-0.24102"
    },
    {
        "region": "Ashanti",
        "district": "Kwabre",
        "facilityname": "Asonomaso Government Hospital",
        "type": "District Hospital",
        "town": "Asonamaso",
        "ownership": "Government",
        "latitude": "6.80162",
        "longitude": "-1.51374"
    },
    {
        "region": "Ashanti",
        "district": "Afigya-Kwabre",
        "facilityname": "Atimatim osei Yeboah Clinic",
        "type": "Clinic",
        "town": "Atimatim",
        "ownership": "Private",
        "latitude": "7.047",
        "longitude": "-1.63722"
    },
    {
        "region": "Ashanti",
        "district": "Kwabre",
        "facilityname": "Ahwiaa Maame Rose Maternity",
        "type": "Clinic",
        "town": "Ahwiaa",
        "ownership": "Private",
        "latitude": "6.75832",
        "longitude": "-1.56736"
    },
    {
        "region": "Ashanti",
        "district": "Kwabre",
        "facilityname": "Adanwomase Eye Awurade Maternity Home",
        "type": "Clinic",
        "town": "Adanwomase",
        "ownership": "Private",
        "latitude": "6.79153",
        "longitude": "-1.4955"
    },
    {
        "region": "Ashanti",
        "district": "Adansi South",
        "facilityname": "Wamase Health Centre",
        "type": "Health Centre",
        "town": "Wamase",
        "ownership": "Government",
        "latitude": "6.15076",
        "longitude": "-1.44347"
    },
    {
        "region": "Ashanti",
        "district": "Adansi South",
        "facilityname": "Wuriyie Clinic",
        "type": "Clinic",
        "town": "Wuriyie",
        "ownership": "Private",
        "latitude": "6.15076",
        "longitude": "-1.44347"
    },